[
    {
        "name": "Buenos Aires",
        "id": "AR-B",
        "cities": {[
            "0": {
                "name": "25 de Mayo",
                "latitude": -35.433651,
                "longitude": -60.1666183
            },
            "1": {
                "name": "9 de Julio",
                "latitude": -35.5497101,
                "longitude": -61.0471355
            },
            "2": {
                "name": "Adolfo Alsina",
                "latitude": -37.2471252,
                "longitude": -63.0147578
            },
            "3": {
                "name": "Adolfo Gonzales Chaves",
                "latitude": -38.0333333,
                "longitude": -60.0833333
            },
            "4": {
                "name": "Aguas Verdes",
                "latitude": -36.6373978,
                "longitude": -56.6899774
            },
            "5": {
                "name": "Alberti",
                "latitude": -35.0337334,
                "longitude": -60.278553
            },
            "6": {
                "name": "Almirante Brown",
                "latitude": -34.8400613,
                "longitude": -58.3945107
            },
            "7": {
                "name": "Arrecifes",
                "latitude": -34.0638771,
                "longitude": -60.1034889
            },
            "8": {
                "name": "Avellaneda",
                "latitude": -34.6610756,
                "longitude": -58.3669739
            },
            "9": {
                "name": "Ayacucho",
                "latitude": -37.1502686,
                "longitude": -58.4829712
            },
            "10": {
                "name": "Azul",
                "latitude": -36.7749672,
                "longitude": -59.8540382
            },
            "11": {
                "name": "Bahía Blanca",
                "latitude": -38.5276163,
                "longitude": -62.1688572
            },
            "12": {
                "name": "Balcarce",
                "latitude": -37.8407516,
                "longitude": -58.2562523
            },
            "13": {
                "name": "Baradero",
                "latitude": -33.808876,
                "longitude": -59.5046844
            },
            "14": {
                "name": "Benito Juárez",
                "latitude": -37.6734123,
                "longitude": -59.8051033
            },
            "15": {
                "name": "Berazategui",
                "latitude": -34.762001,
                "longitude": -58.2112961
            },
            "16": {
                "name": "Berisso",
                "latitude": -34.8907396,
                "longitude": -57.8607187
            },
            "17": {
                "name": "Bolívar",
                "latitude": -36.2283936,
                "longitude": -61.1076431
            },
            "18": {
                "name": "Bragado",
                "latitude": -35.1199112,
                "longitude": -60.4814262
            },
            "19": {
                "name": "Brandsen",
                "latitude": -35.173893,
                "longitude": -58.2339706
            },
            "20": {
                "name": "Campana",
                "latitude": -34.1674805,
                "longitude": -58.9526405
            },
            "21": {
                "name": "Capitán Sarmiento",
                "latitude": -34.1689835,
                "longitude": -59.7892876
            },
            "22": {
                "name": "Cariló",
                "latitude": -37.1615028,
                "longitude": -56.8993073
            },
            "23": {
                "name": "Carlos Casares",
                "latitude": -35.6230278,
                "longitude": -61.3603668
            },
            "24": {
                "name": "Carlos Tejedor",
                "latitude": -35.3926468,
                "longitude": -62.4206543
            },
            "25": {
                "name": "Carmen de Areco",
                "latitude": -34.3806686,
                "longitude": -59.8223267
            },
            "26": {
                "name": "Caseros",
                "latitude": -34.6094827,
                "longitude": -58.5634631
            },
            "27": {
                "name": "Castelli",
                "latitude": -36.0883217,
                "longitude": -57.8062134
            },
            "28": {
                "name": "Cañuelas",
                "latitude": -35.0370865,
                "longitude": -58.7412071
            },
            "29": {
                "name": "Chacabuco",
                "latitude": -34.6359329,
                "longitude": -60.4651222
            },
            "30": {
                "name": "Chapadmalal",
                "latitude": -38.2000008,
                "longitude": -57.6833305
            },
            "31": {
                "name": "Chascomús",
                "latitude": -35.5654907,
                "longitude": -58.0160484
            },
            "32": {
                "name": "Chivilcoy",
                "latitude": -34.8972397,
                "longitude": -60.018837
            },
            "33": {
                "name": "Colón",
                "latitude": -33.8943634,
                "longitude": -61.1009178
            },
            "34": {
                "name": "Coronel Dorrego",
                "latitude": -38.7194366,
                "longitude": -61.2854576
            },
            "35": {
                "name": "Coronel Pringles",
                "latitude": -37.9854202,
                "longitude": -61.3540382
            },
            "36": {
                "name": "Coronel Rosales",
                "latitude": -38.8760605,
                "longitude": -62.0740891
            },
            "37": {
                "name": "Coronel Suárez",
                "latitude": -37.4559517,
                "longitude": -61.9307251
            },
            "38": {
                "name": "Costa Esmeralda"
            },
            "39": {
                "name": "Costa del Este",
                "latitude": -36.610179,
                "longitude": -56.6963924
            },
            "40": {
                "name": "Daireaux",
                "latitude": -36.6009483,
                "longitude": -61.748661
            },
            "41": {
                "name": "Dolores",
                "latitude": -36.3145485,
                "longitude": -57.6800804
            },
            "42": {
                "name": "Ensenada",
                "latitude": -34.8481384,
                "longitude": -57.9254725
            },
            "43": {
                "name": "Escobar",
                "latitude": -34.3402525,
                "longitude": -58.7849434
            },
            "44": {
                "name": "Esteban Echeverría",
                "latitude": -34.8531402,
                "longitude": -58.4744185
            },
            "45": {
                "name": "Exaltación de la Cruz",
                "latitude": -34.2743308,
                "longitude": -59.1501056
            },
            "46": {
                "name": "Ezeiza",
                "latitude": -34.7963269,
                "longitude": -58.551721
            },
            "47": {
                "name": "Florencio Varela",
                "latitude": -34.7965806,
                "longitude": -58.276012
            },
            "48": {
                "name": "Florentino Ameghino",
                "latitude": -34.8166667,
                "longitude": -62.45
            },
            "49": {
                "name": "General Alvarado",
                "latitude": -38.1584631,
                "longitude": -58.0982046
            },
            "50": {
                "name": "General Alvear",
                "latitude": -36.0148964,
                "longitude": -60.0086441
            },
            "51": {
                "name": "General Arenales",
                "latitude": -34.3027039,
                "longitude": -61.303791
            },
            "52": {
                "name": "General Belgrano",
                "latitude": -35.7671432,
                "longitude": -58.4959946
            },
            "53": {
                "name": "General Guido",
                "latitude": -36.6394234,
                "longitude": -57.7900276
            },
            "54": {
                "name": "General La Madrid",
                "latitude": -37.2476425,
                "longitude": -61.2606163
            },
            "55": {
                "name": "General Las Heras",
                "latitude": -34.8867264,
                "longitude": -58.984108
            },
            "56": {
                "name": "General Lavalle",
                "latitude": -36.4004517,
                "longitude": -56.9668617
            },
            "57": {
                "name": "General Madariaga",
                "latitude": -36.9986992,
                "longitude": -57.1341209
            },
            "58": {
                "name": "General Pinto",
                "latitude": -34.7662315,
                "longitude": -61.8832397
            },
            "59": {
                "name": "General Pueyrredón",
                "latitude": -37.9475294,
                "longitude": -57.7799935
            },
            "60": {
                "name": "General Rodríguez",
                "latitude": -34.6020889,
                "longitude": -58.9521294
            },
            "61": {
                "name": "General San Martín",
                "latitude": -34.5759506,
                "longitude": -58.5372696
            },
            "62": {
                "name": "General Viamonte",
                "latitude": -35.0667625,
                "longitude": -61.0471355
            },
            "63": {
                "name": "General Villegas",
                "latitude": -35.03265,
                "longitude": -63.0175781
            },
            "64": {
                "name": "Guaminí",
                "latitude": -37.0125427,
                "longitude": -62.4164963
            },
            "65": {
                "name": "Hipólito Yrigoyen",
                "latitude": -36.2276799,
                "longitude": -61.6538052
            },
            "66": {
                "name": "Hurlingham",
                "latitude": -34.59869,
                "longitude": -58.6340294
            },
            "67": {
                "name": "Ituzaingó",
                "latitude": -34.6570243,
                "longitude": -58.6753978
            },
            "68": {
                "name": "José C. Paz",
                "latitude": -34.5151052,
                "longitude": -58.7662461
            },
            "69": {
                "name": "Junín",
                "latitude": -34.5822105,
                "longitude": -60.9494019
            },
            "70": {
                "name": "La Lucila del Mar",
                "latitude": -36.6583014,
                "longitude": -56.6829829
            },
            "71": {
                "name": "La Matanza",
                "latitude": -34.7862476,
                "longitude": -58.6229664
            },
            "72": {
                "name": "La Plata",
                "latitude": -34.9173012,
                "longitude": -57.9501305
            },
            "73": {
                "name": "La Plata",
                "latitude": -34.9985848,
                "longitude": -58.052689
            },
            "74": {
                "name": "Lanús",
                "latitude": -34.7074598,
                "longitude": -58.3830998
            },
            "75": {
                "name": "Laprida",
                "latitude": -37.5454292,
                "longitude": -60.7987099
            },
            "76": {
                "name": "Las Flores",
                "latitude": -36.0160141,
                "longitude": -59.0969849
            },
            "77": {
                "name": "Las Toninas",
                "latitude": -36.4840666,
                "longitude": -56.6998946
            },
            "78": {
                "name": "Leandro N. Alem",
                "latitude": -34.5205536,
                "longitude": -61.3918762
            },
            "79": {
                "name": "Lincoln",
                "latitude": -34.8678589,
                "longitude": -61.53442
            },
            "80": {
                "name": "Lobería",
                "latitude": -38.1640892,
                "longitude": -58.7817154
            },
            "81": {
                "name": "Lobos",
                "latitude": -35.1767538,
                "longitude": -59.0975467
            },
            "82": {
                "name": "Lomas de Zamora",
                "latitude": -34.7611823,
                "longitude": -58.4302476
            },
            "83": {
                "name": "Luján",
                "latitude": -34.595477,
                "longitude": -59.1501056
            },
            "84": {
                "name": "Magdalena",
                "latitude": -35.0764999,
                "longitude": -57.5175362
            },
            "85": {
                "name": "Maipú",
                "latitude": -36.8652039,
                "longitude": -57.8771286
            },
            "86": {
                "name": "Malvinas Argentinas",
                "latitude": -34.479665,
                "longitude": -58.7030326
            },
            "87": {
                "name": "Mar Azul",
                "latitude": -37.3425462,
                "longitude": -57.0356671
            },
            "88": {
                "name": "Mar Chiquita",
                "latitude": -37.7474365,
                "longitude": -57.4267464
            },
            "89": {
                "name": "Mar de Ajo",
                "latitude": -36.7311783,
                "longitude": -56.6819267
            },
            "90": {
                "name": "Mar de las Pampas",
                "latitude": -37.323204,
                "longitude": -57.019104
            },
            "91": {
                "name": "Mar del Plata",
                "latitude": -37.9798584,
                "longitude": -57.5897942
            },
            "92": {
                "name": "Mar del Sur",
                "latitude": -38.3414421,
                "longitude": -57.9905891
            },
            "93": {
                "name": "Mar del Tuyu",
                "latitude": -36.5798361,
                "longitude": -56.6926753
            },
            "94": {
                "name": "Marcos Paz",
                "latitude": -34.7670822,
                "longitude": -58.8259964
            },
            "95": {
                "name": "Mercedes",
                "latitude": -34.6546021,
                "longitude": -59.4284134
            },
            "96": {
                "name": "Merlo",
                "latitude": -34.6685004,
                "longitude": -58.7282483
            },
            "97": {
                "name": "Miramar",
                "latitude": -38.2653809,
                "longitude": -57.8512611
            },
            "98": {
                "name": "Monte",
                "latitude": -35.4212385,
                "longitude": -58.8289611
            },
            "99": {
                "name": "Monte Hermoso",
                "latitude": -38.9827805,
                "longitude": -61.2974129
            },
            "100": {
                "name": "Moreno",
                "latitude": -34.6340099,
                "longitude": -58.791382
            },
            "101": {
                "name": "Morón",
                "latitude": -34.6558611,
                "longitude": -58.6167212
            },
            "102": {
                "name": "Navarro",
                "latitude": -35.0033722,
                "longitude": -59.275589
            },
            "103": {
                "name": "Necochea",
                "latitude": -38.3310929,
                "longitude": -59.1960526
            },
            "104": {
                "name": "Necochea",
                "latitude": -38.3310929,
                "longitude": -59.1960526
            },
            "105": {
                "name": "Olavarría",
                "latitude": -36.8920898,
                "longitude": -60.3149414
            },
            "106": {
                "name": "Ostende",
                "latitude": -37.1250381,
                "longitude": -56.8838234
            },
            "107": {
                "name": "Patagones",
                "latitude": -40.8030815,
                "longitude": -62.9745293
            },
            "108": {
                "name": "Pehuajó",
                "latitude": -35.8110008,
                "longitude": -61.8956757
            },
            "109": {
                "name": "Pellegrini",
                "latitude": -36.2681885,
                "longitude": -63.1615372
            },
            "110": {
                "name": "Pergamino",
                "latitude": -33.8881416,
                "longitude": -60.5693359
            },
            "111": {
                "name": "Pila",
                "latitude": -36.0017624,
                "longitude": -58.1404037
            },
            "112": {
                "name": "Pilar",
                "latitude": -34.4646213,
                "longitude": -58.8977058
            },
            "113": {
                "name": "Pilar",
                "latitude": -34.4559059,
                "longitude": -58.908329
            },
            "114": {
                "name": "Pinamar",
                "latitude": -37.1008534,
                "longitude": -56.8648473
            },
            "115": {
                "name": "Presidente Perón",
                "latitude": -34.9278314,
                "longitude": -58.382918
            },
            "116": {
                "name": "Punta Indio",
                "latitude": -35.2743492,
                "longitude": -57.2607384
            },
            "117": {
                "name": "Puán",
                "latitude": -37.5447273,
                "longitude": -62.7670898
            },
            "118": {
                "name": "Quilmes",
                "latitude": -34.7260246,
                "longitude": -58.2543564
            },
            "119": {
                "name": "Ramallo",
                "latitude": -33.4864578,
                "longitude": -60.0049095
            },
            "120": {
                "name": "Rauch",
                "latitude": -36.7749176,
                "longitude": -59.0897865
            },
            "121": {
                "name": "Rivadavia",
                "latitude": -35.5823074,
                "longitude": -63.1089658
            },
            "122": {
                "name": "Rojas",
                "latitude": -34.2004395,
                "longitude": -60.7324219
            },
            "123": {
                "name": "Roque Pérez",
                "latitude": -35.399044,
                "longitude": -59.3327522
            },
            "124": {
                "name": "Saavedra",
                "latitude": -37.7639389,
                "longitude": -62.3473015
            },
            "125": {
                "name": "Saladillo",
                "latitude": -35.6796977,
                "longitude": -59.7487272
            },
            "126": {
                "name": "Salliqueló",
                "latitude": -36.7507172,
                "longitude": -62.9600945
            },
            "127": {
                "name": "Salto",
                "latitude": -34.2934341,
                "longitude": -60.2504234
            },
            "128": {
                "name": "San Andrés de Giles",
                "latitude": -34.4464188,
                "longitude": -59.4430733
            },
            "129": {
                "name": "San Antonio de Areco",
                "latitude": -34.2498817,
                "longitude": -59.4662514
            },
            "130": {
                "name": "San Bernardo",
                "latitude": -36.6966095,
                "longitude": -56.683773
            },
            "131": {
                "name": "San Cayetano",
                "latitude": -38.3453865,
                "longitude": -59.6137695
            },
            "132": {
                "name": "San Clemente",
                "latitude": -36.3695702,
                "longitude": -56.7175713
            },
            "133": {
                "name": "San Fernando",
                "latitude": -34.4430618,
                "longitude": -58.5579643
            },
            "134": {
                "name": "San Isidro",
                "latitude": -34.470829,
                "longitude": -58.5286102
            },
            "135": {
                "name": "San Miguel",
                "latitude": -34.5584793,
                "longitude": -58.7354012
            },
            "136": {
                "name": "San Nicolás",
                "latitude": -33.3334656,
                "longitude": -60.2110291
            },
            "137": {
                "name": "San Pedro",
                "latitude": -33.7513166,
                "longitude": -59.7487272
            },
            "138": {
                "name": "San Vicente",
                "latitude": -35.0538035,
                "longitude": -58.4399208
            },
            "139": {
                "name": "Santa Clara del Mar",
                "latitude": -37.8371353,
                "longitude": -57.5021095
            },
            "140": {
                "name": "Santa Teresita",
                "latitude": -36.5437544,
                "longitude": -56.702013
            },
            "141": {
                "name": "Suipacha",
                "latitude": -34.7712212,
                "longitude": -59.6842537
            },
            "142": {
                "name": "Tandil",
                "latitude": -37.3178101,
                "longitude": -59.1503906
            },
            "143": {
                "name": "Tapalqué",
                "latitude": -36.355545,
                "longitude": -60.0236549
            },
            "144": {
                "name": "Tigre",
                "latitude": -34.425087,
                "longitude": -58.5796585
            },
            "145": {
                "name": "Tordillo",
                "latitude": -36.3983626,
                "longitude": -57.2366964
            },
            "146": {
                "name": "Tornquist",
                "latitude": -38.0987358,
                "longitude": -62.2236252
            },
            "147": {
                "name": "Trenque Lauquen",
                "latitude": -35.9738274,
                "longitude": -62.7317238
            },
            "148": {
                "name": "Tres Arroyos",
                "latitude": -38.3763123,
                "longitude": -60.2781296
            },
            "149": {
                "name": "Tres Lomas",
                "latitude": -36.4583817,
                "longitude": -62.8588333
            },
            "150": {
                "name": "Tres de febrero",
                "latitude": -34.6138478,
                "longitude": -58.5429553
            },
            "151": {
                "name": "Valeria del Mar",
                "latitude": -37.1400261,
                "longitude": -56.8920174
            },
            "152": {
                "name": "Vicente López",
                "latitude": -34.5281205,
                "longitude": -58.473816
            },
            "153": {
                "name": "Villa Gesell",
                "latitude": -37.3745958,
                "longitude": -57.0675028
            },
            "154": {
                "name": "Villarino",
                "latitude": -39.0348903,
                "longitude": -62.6383524
            },
            "155": {
                "name": "Wilde"
            },
            "156": {
                "name": "Zárate",
                "latitude": -34.0988083,
                "longitude": -59.0322914
            }
        ]}
    },
    {
        "name": "Capital Federal",
        "id": "AR-C",
        "cities": {[
            "0": {
                "name": "Agronomía",
                "latitude": -34.5891975,
                "longitude": -58.4829834
            },
            "1": {
                "name": "Almagro",
                "latitude": -34.6,
                "longitude": -58.4166667
            },
            "2": {
                "name": "Balvanera",
                "latitude": -34.6105,
                "longitude": -58.3976
            },
            "3": {
                "name": "Barracas",
                "latitude": -34.65,
                "longitude": -58.3833333
            },
            "4": {
                "name": "Belgrano",
                "latitude": -34.5625,
                "longitude": -58.4583333
            },
            "5": {
                "name": "Belgrano Barrancas",
                "latitude": -34.5625,
                "longitude": -58.4583333
            },
            "6": {
                "name": "Belgrano C",
                "latitude": -34.5625,
                "longitude": -58.4583333
            },
            "7": {
                "name": "Belgrano Chico",
                "latitude": -34.5625,
                "longitude": -58.4583333
            },
            "8": {
                "name": "Belgrano R",
                "latitude": -34.5625,
                "longitude": -58.4583333
            },
            "9": {
                "name": "Boedo",
                "latitude": -34.6333333,
                "longitude": -58.4166667
            },
            "10": {
                "name": "Botánico",
                "latitude": -34.5888889,
                "longitude": -58.4305556
            },
            "11": {
                "name": "Caballito",
                "latitude": -34.6166667,
                "longitude": -58.45
            },
            "12": {
                "name": "Chacarita",
                "latitude": -34.587,
                "longitude": -58.4542
            },
            "13": {
                "name": "Coghlan",
                "latitude": -34.5606944,
                "longitude": -58.4747222
            },
            "14": {
                "name": "Colegiales",
                "latitude": -34.5741667,
                "longitude": -58.4491667
            },
            "15": {
                "name": "Constitución",
                "latitude": -34.6261244,
                "longitude": -58.3859524
            },
            "16": {
                "name": "Flores",
                "latitude": -34.6333333,
                "longitude": -58.4666667
            },
            "17": {
                "name": "Floresta",
                "latitude": -34.6282465,
                "longitude": -58.4844109
            },
            "18": {
                "name": "La Boca",
                "latitude": -34.6344961,
                "longitude": -58.3631337
            },
            "19": {
                "name": "Las Cañitas",
                "latitude": -34.5888889,
                "longitude": -58.4305556
            },
            "20": {
                "name": "Liniers",
                "latitude": -34.6436,
                "longitude": -58.5164
            },
            "21": {
                "name": "Mataderos",
                "latitude": -34.6666667,
                "longitude": -58.5
            },
            "22": {
                "name": "Monserrat",
                "latitude": -34.6125,
                "longitude": -58.3833333
            },
            "23": {
                "name": "Monte Castro",
                "latitude": -34.6166667,
                "longitude": -58.5
            },
            "24": {
                "name": "Nueva Pompeya",
                "latitude": -34.65,
                "longitude": -58.4166667
            },
            "25": {
                "name": "Núñez",
                "latitude": -34.55,
                "longitude": -58.4666667
            },
            "26": {
                "name": "Palermo",
                "latitude": -34.5888889,
                "longitude": -58.4305556
            },
            "27": {
                "name": "Palermo Chico",
                "latitude": -34.5888889,
                "longitude": -58.4305556
            },
            "28": {
                "name": "Palermo Holywood",
                "latitude": -34.5888889,
                "longitude": -58.4305556
            },
            "29": {
                "name": "Palermo Nuevo",
                "latitude": -34.5888889,
                "longitude": -58.4305556
            },
            "30": {
                "name": "Palermo Soho",
                "latitude": -34.5888889,
                "longitude": -58.4305556
            },
            "31": {
                "name": "Palermo Viejo",
                "latitude": -34.5888889,
                "longitude": -58.4305556
            },
            "32": {
                "name": "Parque Avellaneda",
                "latitude": -34.6455556,
                "longitude": -58.4786111
            },
            "33": {
                "name": "Parque Chacabuco",
                "latitude": -34.6344444,
                "longitude": -58.4433333
            },
            "34": {
                "name": "Parque Patricios",
                "latitude": -34.6333333,
                "longitude": -58.4
            },
            "35": {
                "name": "Paternal",
                "latitude": -34.5958969,
                "longitude": -58.4715637
            },
            "36": {
                "name": "Puerto Madero",
                "latitude": -34.6104263,
                "longitude": -58.3617076
            },
            "37": {
                "name": "Recoleta",
                "latitude": -34.5905556,
                "longitude": -58.3905556
            },
            "38": {
                "name": "Retiro",
                "latitude": -34.59125,
                "longitude": -58.3740278
            },
            "39": {
                "name": "Saavedra",
                "latitude": -34.55,
                "longitude": -58.4833333
            },
            "40": {
                "name": "San Cristóbal",
                "latitude": -34.6235,
                "longitude": -58.3977
            },
            "41": {
                "name": "San Nicolás",
                "latitude": -34.6052778,
                "longitude": -58.3758333
            },
            "42": {
                "name": "San Telmo",
                "latitude": -34.6205556,
                "longitude": -58.3716667
            },
            "43": {
                "name": "Santa Rita",
                "latitude": -34.6124,
                "longitude": -58.4811
            },
            "44": {
                "name": "Velez Sarsfield",
                "latitude": -34.6333333,
                "longitude": -58.4833333
            },
            "45": {
                "name": "Versailles",
                "latitude": -34.6284,
                "longitude": -58.524
            },
            "46": {
                "name": "Villa Crespo",
                "latitude": -34.6,
                "longitude": -58.45
            },
            "47": {
                "name": "Villa Devoto",
                "latitude": -34.6,
                "longitude": -58.5166667
            },
            "48": {
                "name": "Villa Gral. Mitre",
                "latitude": -34.6108538,
                "longitude": -58.4715637
            },
            "49": {
                "name": "Villa Lugano",
                "latitude": -34.6833333,
                "longitude": -58.4666667
            },
            "50": {
                "name": "Villa Luro",
                "latitude": -34.6333333,
                "longitude": -58.5
            },
            "51": {
                "name": "Villa Ortúzar",
                "latitude": -34.5805556,
                "longitude": -58.4683333
            },
            "52": {
                "name": "Villa Pueyrredón",
                "latitude": -34.5833333,
                "longitude": -58.5
            },
            "53": {
                "name": "Villa Real",
                "latitude": -34.6191,
                "longitude": -58.5266
            },
            "54": {
                "name": "Villa Riachuelo",
                "latitude": -34.7,
                "longitude": -58.4666667
            },
            "55": {
                "name": "Villa Soldati",
                "latitude": -34.6666667,
                "longitude": -58.45
            },
            "56": {
                "name": "Villa Urquiza",
                "latitude": -34.5733333,
                "longitude": -58.4969444
            },
            "57": {
                "name": "Villa del Parque",
                "latitude": -34.6,
                "longitude": -58.4833333
            }
        ]}
    },
    {
        "name": "Catamarca",
        "id": "AR-K",
        "cities": {[
            "0": {
                "name": "Ambato",
                "latitude": -27.8631765,
                "longitude": -65.9511993
            },
            "1": {
                "name": "Ancasti",
                "latitude": -28.8166695,
                "longitude": -65.5
            },
            "2": {
                "name": "Andalgalá",
                "latitude": -27.6004009,
                "longitude": -66.3162308
            },
            "3": {
                "name": "Antofagasta de la Sierra",
                "latitude": -26.0678101,
                "longitude": -67.4176102
            },
            "4": {
                "name": "Belén",
                "latitude": -27.6498394,
                "longitude": -67.0330811
            },
            "5": {
                "name": "Capayán",
                "latitude": -28.7666702,
                "longitude": -66.0666809
            },
            "6": {
                "name": "Catamarca",
                "latitude": -28.4689906,
                "longitude": -65.7789716
            },
            "7": {
                "name": "El Alto",
                "latitude": -28.3,
                "longitude": -65.366
            },
            "8": {
                "name": "Fray Mamerto Esquiú",
                "latitude": -28.2850048,
                "longitude": -65.7371749
            },
            "9": {
                "name": "La Paz",
                "latitude": -29.3999266,
                "longitude": -65.2857082
            },
            "10": {
                "name": "Paclín",
                "latitude": -28.1662006,
                "longitude": -65.6845093
            },
            "11": {
                "name": "Pomán",
                "latitude": -28.3996601,
                "longitude": -66.2173462
            },
            "12": {
                "name": "Santa María",
                "latitude": -26.6988792,
                "longitude": -66.0485611
            },
            "13": {
                "name": "Santa Rosa",
                "latitude": -28.05495,
                "longitude": -65.3332061
            },
            "14": {
                "name": "Tinogasta",
                "latitude": -28.0673199,
                "longitude": -67.565918
            },
            "15": {
                "name": "Valle Viejo",
                "latitude": -28.5656021,
                "longitude": -65.7134009
            }
        ]}
    },
    {
        "name": "Chaco",
        "id": "AR-H",
        "cities": {[
            "0": {
                "name": "12 de Octubre",
                "latitude": -27.2912731,
                "longitude": -61.4202019
            },
            "1": {
                "name": "1º de Mayo",
                "latitude": -27.1882874,
                "longitude": -58.96649
            },
            "2": {
                "name": "2 de Abril"
            },
            "3": {
                "name": "25 de Mayo",
                "latitude": -26.9955381,
                "longitude": -60.1184797
            },
            "4": {
                "name": "9 de Julio",
                "latitude": -26.9591664,
                "longitude": -61.2801996
            },
            "5": {
                "name": "Almirante Brown",
                "latitude": -25.8450351,
                "longitude": -61.5136037
            },
            "6": {
                "name": "Bermejo",
                "latitude": -26.8585115,
                "longitude": -58.8289611
            },
            "7": {
                "name": "Capital",
                "latitude": -27.6251817,
                "longitude": -59.1960526
            },
            "8": {
                "name": "Chacabuco",
                "latitude": -27.1148713,
                "longitude": -61.3035248
            },
            "9": {
                "name": "Comandante Fernández",
                "latitude": -26.7387269,
                "longitude": -60.4892292
            },
            "10": {
                "name": "Fray Justo Santa María de Oro",
                "latitude": -27.8066629,
                "longitude": -61.4202019
            },
            "11": {
                "name": "General Belgrano",
                "latitude": -26.8317762,
                "longitude": -61.0937206
            },
            "12": {
                "name": "General Donovan",
                "latitude": -27.1614381,
                "longitude": -59.3800105
            },
            "13": {
                "name": "General Güemes",
                "latitude": -25.1522614,
                "longitude": -61.5136037
            },
            "14": {
                "name": "Independencia",
                "latitude": -26.7484317,
                "longitude": -60.7214362
            },
            "15": {
                "name": "Libertad",
                "latitude": -27.3400914,
                "longitude": -59.2420166
            },
            "16": {
                "name": "Libertador General San Martín",
                "latitude": -26.3545357,
                "longitude": -59.5642369
            },
            "17": {
                "name": "Maipú",
                "latitude": -26.2658053,
                "longitude": -60.6749653
            },
            "18": {
                "name": "Mayor Luis Jorge Fontana",
                "latitude": -27.8077125,
                "longitude": -60.6749653
            },
            "19": {
                "name": "O Higgins",
                "latitude": -27.2948412,
                "longitude": -60.6749653
            },
            "20": {
                "name": "Presidencia de la Plaza",
                "latitude": -27.0017414,
                "longitude": -59.8439522
            },
            "21": {
                "name": "Quitilipi",
                "latitude": -26.8709272,
                "longitude": -60.2153748
            },
            "22": {
                "name": "San Lorenzo",
                "latitude": -27.3481354,
                "longitude": -60.3500838
            },
            "23": {
                "name": "Sargento Cabral",
                "latitude": -26.8120441,
                "longitude": -59.5181554
            },
            "24": {
                "name": "Tapenagá",
                "latitude": -27.5704642,
                "longitude": -60.0259466
            }
        ]}
    },
    {
        "name": "Chubut",
        "id": "AR-U",
        "cities": {[
            "0": {
                "name": "Biedma",
                "latitude": -42.3748032,
                "longitude": -65.1719931
            },
            "1": {
                "name": "Cushamen",
                "latitude": -42.2768122,
                "longitude": -70.6216794
            },
            "2": {
                "name": "Escalante",
                "latitude": -45.3839796,
                "longitude": -67.7056849
            },
            "3": {
                "name": "Florentino Ameghino",
                "latitude": -44.4224602,
                "longitude": -66.1385138
            },
            "4": {
                "name": "Futaleufú",
                "latitude": -43.3117512,
                "longitude": -71.3824374
            },
            "5": {
                "name": "Gaiman",
                "latitude": -43.2896309,
                "longitude": -65.4921875
            },
            "6": {
                "name": "Gastre",
                "latitude": -42.274807,
                "longitude": -69.2197113
            },
            "7": {
                "name": "Languiñeo",
                "latitude": -43.3947046,
                "longitude": -70.1455415
            },
            "8": {
                "name": "Mártires",
                "latitude": -43.7277874,
                "longitude": -67.2074115
            },
            "9": {
                "name": "Paso de Indios",
                "latitude": -43.8647804,
                "longitude": -69.0438385
            },
            "10": {
                "name": "Rawson",
                "latitude": -43.2998581,
                "longitude": -65.0994873
            },
            "11": {
                "name": "Río Senguer",
                "latitude": -45.4016354,
                "longitude": -70.251309
            },
            "12": {
                "name": "Sarmiento",
                "latitude": -45.5847244,
                "longitude": -69.0706024
            },
            "13": {
                "name": "Tehuelches",
                "latitude": -44.066223,
                "longitude": -70.5343829
            },
            "14": {
                "name": "Telsen",
                "latitude": -42.4361065,
                "longitude": -66.9438584
            }
        ]}
    },
    {
        "name": "Corrientes",
        "id": "AR-W",
        "cities": {[
            "0": {
                "name": "Bella Vista",
                "latitude": -28.5077305,
                "longitude": -59.044857
            },
            "1": {
                "name": "Berón de Astrada",
                "latitude": -27.550273,
                "longitude": -57.528472
            },
            "2": {
                "name": "Concepción",
                "latitude": -28.3910713,
                "longitude": -57.8939323
            },
            "3": {
                "name": "Corrientes",
                "latitude": -27.4712257,
                "longitude": -58.8395844
            },
            "4": {
                "name": "Curuzú Cuatiá",
                "latitude": -29.7915416,
                "longitude": -58.0499307
            },
            "5": {
                "name": "Empedrado",
                "latitude": -27.9517136,
                "longitude": -58.8040848
            },
            "6": {
                "name": "Esquina",
                "latitude": -30.0174007,
                "longitude": -59.5321617
            },
            "7": {
                "name": "General Alvear",
                "latitude": -28.802755,
                "longitude": -56.5168094
            },
            "8": {
                "name": "General Paz",
                "latitude": -27.807954,
                "longitude": -57.9162555
            },
            "9": {
                "name": "Goya",
                "latitude": -29.1442242,
                "longitude": -59.2643242
            },
            "10": {
                "name": "Itatí",
                "latitude": -27.2699165,
                "longitude": -58.2438316
            },
            "11": {
                "name": "Ituzaingó",
                "latitude": -27.5899088,
                "longitude": -56.6892701
            },
            "12": {
                "name": "Lavalle",
                "latitude": -29.02425,
                "longitude": -59.1800003
            },
            "13": {
                "name": "Mburucuyá",
                "latitude": -27.9923335,
                "longitude": -58.143739
            },
            "14": {
                "name": "Mercedes",
                "latitude": -29.1826935,
                "longitude": -58.0789719
            },
            "15": {
                "name": "Monte Caseros",
                "latitude": -30.2494283,
                "longitude": -57.6296874
            },
            "16": {
                "name": "Paso de los Libres",
                "latitude": -29.7137101,
                "longitude": -57.0855601
            },
            "17": {
                "name": "Saladas",
                "latitude": -28.2549496,
                "longitude": -58.6230316
            },
            "18": {
                "name": "San Cosme",
                "latitude": -27.3703691,
                "longitude": -58.5127394
            },
            "19": {
                "name": "San Luis del Palmar",
                "latitude": -27.5113125,
                "longitude": -58.5567322
            },
            "20": {
                "name": "San Martín",
                "latitude": -28.8983754,
                "longitude": -57.0111681
            },
            "21": {
                "name": "San Miguel",
                "latitude": -27.9932613,
                "longitude": -57.588829
            },
            "22": {
                "name": "San Roque",
                "latitude": -28.5746822,
                "longitude": -58.7091255
            },
            "23": {
                "name": "Santo Tomé",
                "latitude": -28.5516205,
                "longitude": -56.0456352
            },
            "24": {
                "name": "Sauce",
                "latitude": -30.086153,
                "longitude": -58.7866859
            }
        ]}
    },
    {
        "name": "Córdoba",
        "id": "AR-X",
        "cities": {[
            "0": {
                "name": "Calamuchita",
                "latitude": -32.2714158,
                "longitude": -64.6214281
            },
            "1": {
                "name": "Colón",
                "latitude": -31.1689573,
                "longitude": -64.2424804
            },
            "2": {
                "name": "Cruz del Eje",
                "latitude": -30.7211227,
                "longitude": -64.8098984
            },
            "3": {
                "name": "Córdoba",
                "latitude": -31.3989296,
                "longitude": -64.1821289
            },
            "4": {
                "name": "General Roca",
                "latitude": -34.6806905,
                "longitude": -64.5266446
            },
            "5": {
                "name": "General San Martín",
                "latitude": -32.4852656,
                "longitude": -63.297505
            },
            "6": {
                "name": "Ischilín",
                "latitude": -30.3910511,
                "longitude": -64.6214281
            },
            "7": {
                "name": "Juárez Celman",
                "latitude": -33.241537,
                "longitude": -63.6750562
            },
            "8": {
                "name": "Marcos Juárez",
                "latitude": -32.6936073,
                "longitude": -62.1026764
            },
            "9": {
                "name": "Minas",
                "latitude": -31.0629404,
                "longitude": -65.3807101
            },
            "10": {
                "name": "Pocho",
                "latitude": -31.4833298,
                "longitude": -65.2666702
            },
            "11": {
                "name": "Presidente Roque Sáenz Peña",
                "latitude": -34.0913139,
                "longitude": -63.3918347
            },
            "12": {
                "name": "Punilla",
                "latitude": -31.4202675,
                "longitude": -64.6214281
            },
            "13": {
                "name": "Río Cuarto",
                "latitude": -33.3475232,
                "longitude": -64.5266446
            },
            "14": {
                "name": "Río Primero",
                "latitude": -31.0691399,
                "longitude": -63.3918347
            },
            "15": {
                "name": "Río Seco",
                "latitude": -29.9381754,
                "longitude": -63.297505
            },
            "16": {
                "name": "Río Segundo",
                "latitude": -31.6842796,
                "longitude": -63.4862036
            },
            "17": {
                "name": "San Alberto",
                "latitude": -31.6706764,
                "longitude": -65.0008536
            },
            "18": {
                "name": "San Javier",
                "latitude": -32.084217,
                "longitude": -65.1432518
            },
            "19": {
                "name": "San Justo",
                "latitude": -31.0261488,
                "longitude": -62.4504154
            },
            "20": {
                "name": "Santa María",
                "latitude": -31.6803843,
                "longitude": -64.2424804
            },
            "21": {
                "name": "Sobremonte",
                "latitude": -29.7557077,
                "longitude": -64.0532003
            },
            "22": {
                "name": "Tercero Arriba",
                "latitude": -32.2336427,
                "longitude": -63.6750562
            },
            "23": {
                "name": "Totoral",
                "latitude": -30.7458743,
                "longitude": -63.8640569
            },
            "24": {
                "name": "Tulumba",
                "latitude": -30.2318286,
                "longitude": -63.8640569
            },
            "25": {
                "name": "Unión",
                "latitude": -32.2492552,
                "longitude": -62.6383524
            }
        ]}
    },
    {
        "name": "Entre Ríos",
        "id": "AR-E",
        "cities": {[
            "0": {
                "name": "C. del Uruguay",
                "latitude": -32.4232131,
                "longitude": -58.4629997
            },
            "1": {
                "name": "Colón",
                "latitude": -32.2249328,
                "longitude": -58.1447142
            },
            "2": {
                "name": "Concordia",
                "latitude": -31.3918479,
                "longitude": -58.0170605
            },
            "3": {
                "name": "Diamante",
                "latitude": -32.0697098,
                "longitude": -60.6378708
            },
            "4": {
                "name": "Federación",
                "latitude": -30.9850361,
                "longitude": -57.9198417
            },
            "5": {
                "name": "Federal",
                "latitude": -30.9512291,
                "longitude": -58.7988281
            },
            "6": {
                "name": "Feliciano",
                "latitude": -30.3343671,
                "longitude": -58.6458369
            },
            "7": {
                "name": "Gualeguay",
                "latitude": -33.1512413,
                "longitude": -59.3344116
            },
            "8": {
                "name": "Gualeguaychú",
                "latitude": -33.0150185,
                "longitude": -58.5192451
            },
            "9": {
                "name": "Islas del Ibicuy",
                "latitude": -33.6610262,
                "longitude": -58.8289611
            },
            "10": {
                "name": "La Paz",
                "latitude": -30.7589703,
                "longitude": -59.6392784
            },
            "11": {
                "name": "Nogoyá",
                "latitude": -32.399216,
                "longitude": -59.7877403
            },
            "12": {
                "name": "Paraná",
                "latitude": -31.7147513,
                "longitude": -60.1184797
            },
            "13": {
                "name": "Rosario del Tala",
                "latitude": -32.3026733,
                "longitude": -59.1416779
            },
            "14": {
                "name": "San Salvador"
            },
            "15": {
                "name": "Victoria",
                "latitude": -32.6220245,
                "longitude": -60.1570702
            },
            "16": {
                "name": "Villaguay",
                "latitude": -31.849369,
                "longitude": -59.0158081
            }
        ]}
    },
    {
        "name": "Formosa",
        "id": "AR-P",
        "cities": {[
            "0": {
                "name": "Bermejo",
                "latitude": -24.0349847,
                "longitude": -61.1403196
            },
            "1": {
                "name": "Formosa",
                "latitude": -26.185201,
                "longitude": -58.1753697
            },
            "2": {
                "name": "Laishi",
                "latitude": -26.4753454,
                "longitude": -58.6458369
            },
            "3": {
                "name": "Matacos",
                "latitude": -23.8058851,
                "longitude": -62.1688572
            },
            "4": {
                "name": "Patiño",
                "latitude": -24.8334603,
                "longitude": -60.0259466
            },
            "5": {
                "name": "Pilagás",
                "latitude": -25.1181873,
                "longitude": -58.6458369
            },
            "6": {
                "name": "Pilcomayo",
                "latitude": -25.3272942,
                "longitude": -58.0982046
            },
            "7": {
                "name": "Pirané",
                "latitude": -25.7317829,
                "longitude": -59.1068687
            },
            "8": {
                "name": "Ramón Lista",
                "latitude": -23.1075522,
                "longitude": -62.1688572
            }
        ]}
    },
    {
        "name": "Jujuy",
        "id": "AR-Y",
        "cities": {[
            "0": {
                "name": "Cochinoca",
                "latitude": -22.7450329,
                "longitude": -65.8962316
            },
            "1": {
                "name": "El Carmen",
                "latitude": -24.3893458,
                "longitude": -65.2616207
            },
            "2": {
                "name": "Humahuaca",
                "latitude": -23.203963,
                "longitude": -65.3486093
            },
            "3": {
                "name": "Jujuy",
                "latitude": -24.1857864,
                "longitude": -65.2994767
            },
            "4": {
                "name": "Ledesma",
                "latitude": -23.8006695,
                "longitude": -64.7636592
            },
            "5": {
                "name": "Palpalá",
                "latitude": -24.2648355,
                "longitude": -65.2117778
            },
            "6": {
                "name": "Rinconada",
                "latitude": -22.4381834,
                "longitude": -66.16791
            },
            "7": {
                "name": "San Antonio",
                "latitude": -24.3703416,
                "longitude": -65.331836
            },
            "8": {
                "name": "San Pedro",
                "latitude": -24.2316571,
                "longitude": -64.8678707
            },
            "9": {
                "name": "Santa Bárbara",
                "latitude": -24.0522074,
                "longitude": -64.4318916
            },
            "10": {
                "name": "Santa Catalina",
                "latitude": -21.9464467,
                "longitude": -66.0514759
            },
            "11": {
                "name": "Susques",
                "latitude": -23.4166667,
                "longitude": -66.4833333
            },
            "12": {
                "name": "Tilcara",
                "latitude": -23.5768699,
                "longitude": -65.3933739
            },
            "13": {
                "name": "Tumbaya",
                "latitude": -23.8577193,
                "longitude": -65.4675856
            },
            "14": {
                "name": "Valle Grande",
                "latitude": -23.47504,
                "longitude": -64.93744
            },
            "15": {
                "name": "Yavi",
                "latitude": -22.1293661,
                "longitude": -65.4626484
            }
        ]}
    },
    {
        "name": "La Pampa",
        "id": "AR-L",
        "cities": {[
            "0": {
                "name": "Atreucó",
                "latitude": -37.0526179,
                "longitude": -63.8640569
            },
            "1": {
                "name": "Caleu Caleu",
                "latitude": -38.692062,
                "longitude": -63.7695384
            },
            "2": {
                "name": "Catriló",
                "latitude": -36.4080734,
                "longitude": -63.4198189
            },
            "3": {
                "name": "Chalileo",
                "latitude": -36.4075974,
                "longitude": -66.4271499
            },
            "4": {
                "name": "Chapaleufú",
                "latitude": -35.2270418,
                "longitude": -63.6750562
            },
            "5": {
                "name": "Chical Co",
                "latitude": -36.3109609,
                "longitude": -67.5708536
            },
            "6": {
                "name": "Conhelo",
                "latitude": -36.054218,
                "longitude": -64.4318916
            },
            "7": {
                "name": "Curacó",
                "latitude": -38.0266639,
                "longitude": -66.4271499
            },
            "8": {
                "name": "Guatraché",
                "latitude": -37.6687126,
                "longitude": -63.5415382
            },
            "9": {
                "name": "Hucal",
                "latitude": -37.7666702,
                "longitude": -64.0333405
            },
            "10": {
                "name": "Lihuel Calel",
                "latitude": -38.3289588,
                "longitude": -64.905955
            },
            "11": {
                "name": "Limay Mahuida",
                "latitude": -37.155407,
                "longitude": -66.6693573
            },
            "12": {
                "name": "Loventué",
                "latitude": -36.572261,
                "longitude": -65.6658568
            },
            "13": {
                "name": "Maracó",
                "latitude": -35.7166106,
                "longitude": -63.6750562
            },
            "14": {
                "name": "Puelén",
                "latitude": -37.293251,
                "longitude": -67.5708536
            },
            "15": {
                "name": "Quemú Quemú",
                "latitude": -36.0488892,
                "longitude": -63.5504112
            },
            "16": {
                "name": "Rancul",
                "latitude": -35.0696793,
                "longitude": -64.6819687
            },
            "17": {
                "name": "Realicó",
                "latitude": -35.1937058,
                "longitude": -64.2424804
            },
            "18": {
                "name": "Santa Rosa",
                "latitude": -36.4973493,
                "longitude": -64.2424804
            },
            "19": {
                "name": "Toay",
                "latitude": -36.669342,
                "longitude": -64.3787155
            },
            "20": {
                "name": "Trenel",
                "latitude": -35.7000694,
                "longitude": -64.1326904
            },
            "21": {
                "name": "Utracán",
                "latitude": -37.3733395,
                "longitude": -64.905955
            }
        ]}
    },
    {
        "name": "La Rioja",
        "id": "AR-F",
        "cities": {[
            "0": {
                "name": "Arauco",
                "latitude": -28.530848,
                "longitude": -66.712915
            },
            "1": {
                "name": "Capital",
                "latitude": -29.4128001,
                "longitude": -66.8559803
            },
            "2": {
                "name": "Castro Barros",
                "latitude": -28.8820942,
                "longitude": -66.9511459
            },
            "3": {
                "name": "Chamical",
                "latitude": -30.1385366,
                "longitude": -65.9511993
            },
            "4": {
                "name": "Chilecito",
                "latitude": -29.1659603,
                "longitude": -67.5
            },
            "5": {
                "name": "Coronel Felipe Varela",
                "latitude": -29.504791,
                "longitude": -68.2385339
            },
            "6": {
                "name": "Famatina",
                "latitude": -28.9160194,
                "longitude": -67.5164795
            },
            "7": {
                "name": "General Angel V. Peñaloza",
                "latitude": -30.2837165,
                "longitude": -66.712915
            },
            "8": {
                "name": "General Belgrano",
                "latitude": -30.6214383,
                "longitude": -65.7609502
            },
            "9": {
                "name": "General Juan F. Quiroga",
                "latitude": -30.8414135,
                "longitude": -66.9034936
            },
            "10": {
                "name": "General Lamadrid",
                "latitude": -28.8608802,
                "longitude": -68.6201072
            },
            "11": {
                "name": "General Ocampo",
                "latitude": -31.041916,
                "longitude": -66.1415263
            },
            "12": {
                "name": "General San Martín",
                "latitude": -31.6262564,
                "longitude": -66.0463534
            },
            "13": {
                "name": "Independencia",
                "latitude": -30.109996,
                "longitude": -67.1894488
            },
            "14": {
                "name": "Rosario Vera Peñaloza",
                "latitude": -31.4979103,
                "longitude": -66.712915
            },
            "15": {
                "name": "San Blas de los Sauces",
                "latitude": -28.3996601,
                "longitude": -67.0825195
            },
            "16": {
                "name": "Sanagasta",
                "latitude": -29.283,
                "longitude": -67.033
            },
            "17": {
                "name": "Vinchina",
                "latitude": -28.2538694,
                "longitude": -68.7154975
            }
        ]}
    },
    {
        "name": "Mendoza",
        "id": "AR-M",
        "cities": {[
            "0": {
                "name": "General Alvear",
                "latitude": -34.9740067,
                "longitude": -67.6856918
            },
            "1": {
                "name": "Godoy Cruz",
                "latitude": -32.9177818,
                "longitude": -68.8320923
            },
            "2": {
                "name": "Guaymallén",
                "latitude": -32.8765331,
                "longitude": -68.6916501
            },
            "3": {
                "name": "Junín",
                "latitude": -33.1484985,
                "longitude": -68.4860306
            },
            "4": {
                "name": "La Paz",
                "latitude": -33.4597893,
                "longitude": -67.5490112
            },
            "5": {
                "name": "Las Heras",
                "latitude": -32.8491211,
                "longitude": -68.8156204
            },
            "6": {
                "name": "Lavalle",
                "latitude": -32.6074249,
                "longitude": -67.5708536
            },
            "7": {
                "name": "Luján de Cuyo",
                "latitude": -33.0496216,
                "longitude": -68.8677979
            },
            "8": {
                "name": "Maipú",
                "latitude": -32.9672203,
                "longitude": -68.7826614
            },
            "9": {
                "name": "Malargüe",
                "latitude": -35.4721298,
                "longitude": -69.5808716
            },
            "10": {
                "name": "Mendoza",
                "latitude": -32.890183,
                "longitude": -68.8440498
            },
            "11": {
                "name": "Rivadavia",
                "latitude": -33.1842003,
                "longitude": -68.4667969
            },
            "12": {
                "name": "San Carlos",
                "latitude": -33.7738457,
                "longitude": -69.0417938
            },
            "13": {
                "name": "San Martín",
                "latitude": -33.0799789,
                "longitude": -68.4694595
            },
            "14": {
                "name": "San Rafael",
                "latitude": -34.6131516,
                "longitude": -68.341011
            },
            "15": {
                "name": "Santa Rosa",
                "latitude": -33.2536697,
                "longitude": -68.1489639
            },
            "16": {
                "name": "Tunuyán",
                "latitude": -33.571167,
                "longitude": -69.0132141
            },
            "17": {
                "name": "Tupungato",
                "latitude": -33.3654785,
                "longitude": -69.1342163
            }
        ]}
    },
    {
        "name": "Misiones",
        "id": "AR-N",
        "cities": {[
            "0": {
                "name": "25 de Mayo",
                "latitude": -27.3771896,
                "longitude": -54.743454
            },
            "1": {
                "name": "Apóstoles",
                "latitude": -27.9143324,
                "longitude": -55.7549223
            },
            "2": {
                "name": "Cainguás",
                "latitude": -27.1456567,
                "longitude": -54.8731219
            },
            "3": {
                "name": "Candelaria",
                "latitude": -27.4612713,
                "longitude": -55.7440279
            },
            "4": {
                "name": "Concepción",
                "latitude": -27.9249299,
                "longitude": -55.4471613
            },
            "5": {
                "name": "Eldorado",
                "latitude": -26.3999195,
                "longitude": -54.626812
            },
            "6": {
                "name": "General Manuel Belgrano",
                "latitude": -26.0764301,
                "longitude": -53.9976775
            },
            "7": {
                "name": "Guaraní",
                "latitude": -26.9941175,
                "longitude": -54.3467152
            },
            "8": {
                "name": "Iguazú",
                "latitude": -25.8482523,
                "longitude": -54.3467152
            },
            "9": {
                "name": "Leandro N. Alem",
                "latitude": -27.604435,
                "longitude": -55.3238487
            },
            "10": {
                "name": "Libertador Grl. San Martín",
                "latitude": -26.8709613,
                "longitude": -54.9171412
            },
            "11": {
                "name": "Montecarlo",
                "latitude": -26.5667648,
                "longitude": -54.7660458
            },
            "12": {
                "name": "Oberá",
                "latitude": -27.4815311,
                "longitude": -55.1234932
            },
            "13": {
                "name": "Posadas",
                "latitude": -27.3621374,
                "longitude": -55.9008746
            },
            "14": {
                "name": "San Ignacio",
                "latitude": -27.2586344,
                "longitude": -55.5392022
            },
            "15": {
                "name": "San Javier",
                "latitude": -27.8719559,
                "longitude": -55.1389084
            },
            "16": {
                "name": "San Pedro",
                "latitude": -26.6308594,
                "longitude": -54.1131592
            }
        ]}
    },
    {
        "name": "Neuquén",
        "id": "AR-Q",
        "cities": {[
            "0": {
                "name": "Aluminé",
                "latitude": -39.2349739,
                "longitude": -70.9225082
            },
            "1": {
                "name": "Añelo",
                "latitude": -38.3505211,
                "longitude": -68.7826614
            },
            "2": {
                "name": "Catán Lil",
                "latitude": -39.5352246,
                "longitude": -70.5264934
            },
            "3": {
                "name": "Chos Malal",
                "latitude": -37.3793945,
                "longitude": -70.2700043
            },
            "4": {
                "name": "Collón Curá",
                "latitude": -40.0478783,
                "longitude": -70.0747757
            },
            "5": {
                "name": "Huiliches",
                "latitude": -39.8238585,
                "longitude": -71.2874209
            },
            "6": {
                "name": "Loncopué",
                "latitude": -38.0676308,
                "longitude": -70.6173706
            },
            "7": {
                "name": "Los Lagos",
                "latitude": -40.8024416,
                "longitude": -71.4774291
            },
            "8": {
                "name": "Lácar",
                "latitude": -40.2991933,
                "longitude": -71.2874209
            },
            "9": {
                "name": "Minas",
                "latitude": -36.8018826,
                "longitude": -70.7168469
            },
            "10": {
                "name": "Neuquén",
                "latitude": -38.9492798,
                "longitude": -68.0658112
            },
            "11": {
                "name": "Pehuenches",
                "latitude": -37.3931704,
                "longitude": -69.3831079
            },
            "12": {
                "name": "Picunches",
                "latitude": -38.5390021,
                "longitude": -70.3360691
            },
            "13": {
                "name": "Picún Leufú",
                "latitude": -39.5184746,
                "longitude": -69.2861023
            },
            "14": {
                "name": "Zapala",
                "latitude": -38.9023615,
                "longitude": -70.0653405
            },
            "15": {
                "name": "Ñorquín",
                "latitude": -37.6270178,
                "longitude": -70.7168469
            }
        ]}
    },
    {
        "name": "Río Negro",
        "id": "AR-R",
        "cities": {[
            "0": {
                "name": "25 de Mayo",
                "latitude": -40.9611496,
                "longitude": -69.2877535
            },
            "1": {
                "name": "9 de Julio",
                "latitude": -40.7797502,
                "longitude": -67.5708536
            },
            "2": {
                "name": "Avellaneda",
                "latitude": -39.5266112,
                "longitude": -66.0463534
            },
            "3": {
                "name": "Bariloche",
                "latitude": -41.1492882,
                "longitude": -71.3012695
            },
            "4": {
                "name": "Capital",
                "latitude": -40.8119087,
                "longitude": -62.9962044
            },
            "5": {
                "name": "Conesa",
                "latitude": -40.11197,
                "longitude": -64.5266446
            },
            "6": {
                "name": "El Cuy",
                "latitude": -39.9276085,
                "longitude": -68.3414307
            },
            "7": {
                "name": "General Roca",
                "latitude": -39.0267525,
                "longitude": -67.5751724
            },
            "8": {
                "name": "Pichi Mahuida",
                "latitude": -39.3834162,
                "longitude": -64.7162415
            },
            "9": {
                "name": "Pilcaniyeu",
                "latitude": -41.1273193,
                "longitude": -70.7217407
            },
            "10": {
                "name": "San Antonio",
                "latitude": -40.9966323,
                "longitude": -65.3807101
            },
            "11": {
                "name": "Valcheta",
                "latitude": -40.6833115,
                "longitude": -66.1618805
            },
            "12": {
                "name": "Ñorquincó",
                "latitude": -41.8496704,
                "longitude": -70.9002686
            }
        ]}
    },
    {
        "name": "Salta",
        "id": "AR-A",
        "cities": {[
            "0": {
                "name": "Anta",
                "latitude": -24.9012617,
                "longitude": -63.7695384
            },
            "1": {
                "name": "Cachi",
                "latitude": -25.1010094,
                "longitude": -66.1843872
            },
            "2": {
                "name": "Cafayate",
                "latitude": -26.0703259,
                "longitude": -65.9787521
            },
            "3": {
                "name": "Cerrillos",
                "latitude": -24.8949757,
                "longitude": -65.4810028
            },
            "4": {
                "name": "Chicoana",
                "latitude": -25.1037598,
                "longitude": -65.5362015
            },
            "5": {
                "name": "General Güemes",
                "latitude": -24.80901,
                "longitude": -64.9534009
            },
            "6": {
                "name": "Gral. José de San Martín",
                "latitude": -22.78644,
                "longitude": -63.7695384
            },
            "7": {
                "name": "Guachipas",
                "latitude": -25.5166702,
                "longitude": -65.5333405
            },
            "8": {
                "name": "Iruya",
                "latitude": -22.7922155,
                "longitude": -65.2163985
            },
            "9": {
                "name": "La Caldera",
                "latitude": -24.6026105,
                "longitude": -65.3807311
            },
            "10": {
                "name": "La Candelaria",
                "latitude": -26.100771,
                "longitude": -65.0994873
            },
            "11": {
                "name": "La Poma",
                "latitude": -24.7166691,
                "longitude": -66.2166672
            },
            "12": {
                "name": "La Viña",
                "latitude": -25.4498291,
                "longitude": -65.582901
            },
            "13": {
                "name": "Los Andes",
                "latitude": -24.7857576,
                "longitude": -67.1894488
            },
            "14": {
                "name": "Metán",
                "latitude": -25.4942245,
                "longitude": -64.9721298
            },
            "15": {
                "name": "Molinos",
                "latitude": -25.4192295,
                "longitude": -66.3233719
            },
            "16": {
                "name": "Orán",
                "latitude": -23.1286198,
                "longitude": -64.3215195
            },
            "17": {
                "name": "Rivadavia",
                "latitude": -24.1836605,
                "longitude": -62.8829918
            },
            "18": {
                "name": "Rosario de Lerma",
                "latitude": -24.9829102,
                "longitude": -65.582901
            },
            "19": {
                "name": "Rosario de la Frontera",
                "latitude": -25.7986507,
                "longitude": -64.9676514
            },
            "20": {
                "name": "Salta",
                "latitude": -24.7829323,
                "longitude": -65.4121552
            },
            "21": {
                "name": "San Carlos",
                "latitude": -25.931591,
                "longitude": -65.9459229
            },
            "22": {
                "name": "Santa Victoria",
                "latitude": -22.2503841,
                "longitude": -64.9666674
            }
        ]}
    },
    {
        "name": "San Juan",
        "id": "AR-J",
        "cities": {[
            "0": {
                "name": "25 de Mayo",
                "latitude": -32.0226272,
                "longitude": -67.6662231
            },
            "1": {
                "name": "9 de Julio",
                "latitude": -31.6499996,
                "longitude": -68.4000015
            },
            "2": {
                "name": "Albardón",
                "latitude": -31.2572868,
                "longitude": -68.4770183
            },
            "3": {
                "name": "Angaco",
                "latitude": -31.2249626,
                "longitude": -68.0477509
            },
            "4": {
                "name": "Calingasta",
                "latitude": -31.3184566,
                "longitude": -69.4253616
            },
            "5": {
                "name": "Capital",
                "latitude": -31.5272732,
                "longitude": -68.5214081
            },
            "6": {
                "name": "Caucete",
                "latitude": -31.6541691,
                "longitude": -68.2852783
            },
            "7": {
                "name": "Chimbas",
                "latitude": -31.4833298,
                "longitude": -68.5333405
            },
            "8": {
                "name": "Iglesia",
                "latitude": -30.3991699,
                "longitude": -69.2166214
            },
            "9": {
                "name": "Jáchal",
                "latitude": -30.2414761,
                "longitude": -68.7466965
            },
            "10": {
                "name": "Pocito",
                "latitude": -31.7093679,
                "longitude": -68.5724112
            },
            "11": {
                "name": "Rawson",
                "latitude": -31.666657,
                "longitude": -68.4531699
            },
            "12": {
                "name": "Rivadavia",
                "latitude": -31.5538902,
                "longitude": -68.6524963
            },
            "13": {
                "name": "San Martín",
                "latitude": -31.5378744,
                "longitude": -68.0954459
            },
            "14": {
                "name": "Santa Lucía",
                "latitude": -31.5335102,
                "longitude": -68.4832764
            },
            "15": {
                "name": "Sarmiento",
                "latitude": -32.0216145,
                "longitude": -68.6201072
            },
            "16": {
                "name": "Ullúm",
                "latitude": -31.0417604,
                "longitude": -69.0016485
            },
            "17": {
                "name": "Valle Fértil",
                "latitude": -30.9123768,
                "longitude": -67.2847875
            },
            "18": {
                "name": "Zonda",
                "latitude": -31.740385,
                "longitude": -69.0016485
            }
        ]}
    },
    {
        "name": "San Luis",
        "id": "AR-D",
        "cities": {[
            "0": {
                "name": "Ayacucho",
                "latitude": -32.1492399,
                "longitude": -66.5223902
            },
            "1": {
                "name": "Belgrano",
                "latitude": -32.651371,
                "longitude": -66.4673004
            },
            "2": {
                "name": "Chacabuco",
                "latitude": -32.7312467,
                "longitude": -65.1907309
            },
            "3": {
                "name": "Coronel Pringles",
                "latitude": -33.2276646,
                "longitude": -65.9511993
            },
            "4": {
                "name": "General Pedernera",
                "latitude": -33.9270785,
                "longitude": -65.6658568
            },
            "5": {
                "name": "Gobernador Dupuy",
                "latitude": -35.2599247,
                "longitude": -65.6658568
            },
            "6": {
                "name": "Junín",
                "latitude": -32.1298862,
                "longitude": -65.5707852
            },
            "7": {
                "name": "Libertador Gral. San Martín",
                "latitude": -32.5753228,
                "longitude": -65.6658568
            },
            "8": {
                "name": "San Luis",
                "latitude": -33.2995605,
                "longitude": -66.3491821
            }
        ]}
    },
    {
        "name": "Santa Cruz",
        "id": "AR-Z",
        "cities": {[
            "0": {
                "name": "Capital",
                "latitude": -51.4634771,
                "longitude": -70.8273026
            },
            "1": {
                "name": "Corpen Aike"
            },
            "2": {
                "name": "Deseado",
                "latitude": -47.2847476,
                "longitude": -68.3533295
            },
            "3": {
                "name": "Lago Argentino",
                "latitude": -49.6140393,
                "longitude": -72.091139
            },
            "4": {
                "name": "Lago Buenos Aires",
                "latitude": -46.9248878,
                "longitude": -70.7881354
            },
            "5": {
                "name": "Magallanes",
                "latitude": -48.9815517,
                "longitude": -68.5183639
            },
            "6": {
                "name": "Río Chico",
                "latitude": -48.1256647,
                "longitude": -71.1431495
            }
        ]}
    },
    {
        "name": "Santa Fe",
        "id": "AR-S",
        "cities": {[
            "0": {
                "name": "9 de Julio",
                "latitude": -28.9403164,
                "longitude": -61.5136037
            },
            "1": {
                "name": "Belgrano",
                "latitude": -32.4770508,
                "longitude": -61.5779724
            },
            "2": {
                "name": "Caseros",
                "latitude": -33.2493026,
                "longitude": -61.6070583
            },
            "3": {
                "name": "Castellanos",
                "latitude": -30.974859,
                "longitude": -61.5136037
            },
            "4": {
                "name": "Constitución",
                "latitude": -33.6022037,
                "longitude": -61.0471355
            },
            "5": {
                "name": "Garay",
                "latitude": -31.0495847,
                "longitude": -60.1184797
            },
            "6": {
                "name": "General López",
                "latitude": -34.0596149,
                "longitude": -61.8877321
            },
            "7": {
                "name": "General Obligado",
                "latitude": -28.4080018,
                "longitude": -59.2879977
            },
            "8": {
                "name": "Iriondo",
                "latitude": -32.660212,
                "longitude": -61.2335592
            },
            "9": {
                "name": "La Capital",
                "latitude": -31.6323891,
                "longitude": -60.6994591
            },
            "10": {
                "name": "Las Colonias",
                "latitude": -31.5553133,
                "longitude": -61.1403196
            },
            "11": {
                "name": "Rosario",
                "latitude": -32.9507408,
                "longitude": -60.6665001
            },
            "12": {
                "name": "San Cristóbal",
                "latitude": -30.3069038,
                "longitude": -61.2378159
            },
            "13": {
                "name": "San Javier",
                "latitude": -30.5831909,
                "longitude": -59.9496384
            },
            "14": {
                "name": "San Jerónimo",
                "latitude": -32.1158025,
                "longitude": -61.0471355
            },
            "15": {
                "name": "San Justo",
                "latitude": -30.7894382,
                "longitude": -60.5910225
            },
            "16": {
                "name": "San Lorenzo",
                "latitude": -32.7502403,
                "longitude": -60.7324219
            },
            "17": {
                "name": "San Martín",
                "latitude": -31.9652427,
                "longitude": -61.7941232
            },
            "18": {
                "name": "Vera",
                "latitude": -29.4653301,
                "longitude": -60.2160606
            }
        ]}
    },
    {
        "name": "Santiago del Estero",
        "id": "AR-G",
        "cities": {[
            "0": {
                "name": "Aguirre",
                "latitude": -29.5370502,
                "longitude": -62.2660294
            },
            "1": {
                "name": "Alberdi",
                "latitude": -26.5048365,
                "longitude": -63.0147578
            },
            "2": {
                "name": "Atamisqui",
                "latitude": -28.50144,
                "longitude": -63.807388
            },
            "3": {
                "name": "Avellaneda",
                "latitude": -28.4270564,
                "longitude": -63.4862036
            },
            "4": {
                "name": "Belgrano",
                "latitude": -29.1746723,
                "longitude": -62.1688572
            },
            "5": {
                "name": "Choya",
                "latitude": -28.5012798,
                "longitude": -64.8660278
            },
            "6": {
                "name": "Copo",
                "latitude": -26.002374,
                "longitude": -62.2626627
            },
            "7": {
                "name": "Figueroa",
                "latitude": -27.3848224,
                "longitude": -63.4862036
            },
            "8": {
                "name": "General Taboada",
                "latitude": -28.5301758,
                "longitude": -62.3565156
            },
            "9": {
                "name": "Guasayán",
                "latitude": -27.9980923,
                "longitude": -64.811084
            },
            "10": {
                "name": "Jiménez",
                "latitude": -27.0116598,
                "longitude": -64.2424804
            },
            "11": {
                "name": "Juan F. Ibarra",
                "latitude": -28.0793049,
                "longitude": -62.2626627
            },
            "12": {
                "name": "La Banda",
                "latitude": -27.7358357,
                "longitude": -64.2437523
            },
            "13": {
                "name": "Loreto",
                "latitude": -28.3,
                "longitude": -64.2
            },
            "14": {
                "name": "Moreno",
                "latitude": -27.3890364,
                "longitude": -62.2626627
            },
            "15": {
                "name": "Pellegrini",
                "latitude": -26.0281624,
                "longitude": -64.1478236
            },
            "16": {
                "name": "Quebrachos",
                "latitude": -29.4229348,
                "longitude": -63.297505
            },
            "17": {
                "name": "Rivadavia",
                "latitude": -30.0707709,
                "longitude": -62.3565156
            },
            "18": {
                "name": "Robles",
                "latitude": -27.8630189,
                "longitude": -63.9113296
            },
            "19": {
                "name": "Salavina",
                "latitude": -28.9060056,
                "longitude": -63.297505
            },
            "20": {
                "name": "San Martín",
                "latitude": -28.1579648,
                "longitude": -63.8640569
            },
            "21": {
                "name": "Santiago del Estero",
                "latitude": -27.9235973,
                "longitude": -64.4318916
            },
            "22": {
                "name": "Sarmiento",
                "latitude": -28.1138423,
                "longitude": -63.4390143
            },
            "23": {
                "name": "Silípica",
                "latitude": -28.1000004,
                "longitude": -64.1333313
            },
            "24": {
                "name": "Termas de Río Hondo",
                "latitude": -27.4725234,
                "longitude": -64.811084
            },
            "25": {
                "name": "Villa General Mitre",
                "latitude": -29.6427683,
                "longitude": -62.7323884
            },
            "26": {
                "name": "Villa Ojo de Agua",
                "latitude": -29.1706123,
                "longitude": -64.1478236
            }
        ]}
    },
    {
        "name": "Tierra del Fuego ",
        "id": "AR-V",
        "cities": {[
            "0": {
                "name": "Río Grande",
                "latitude": -53.7918091,
                "longitude": -67.7197266
            },
            "1": {
                "name": "Ushuaia",
                "latitude": -54.7916794,
                "longitude": -68.229248
            }
        ]}
    },
    {
        "name": "Tucumán",
        "id": "AR-T",
        "cities": {[
            "0": {
                "name": "Burruyacú",
                "latitude": -26.499424,
                "longitude": -64.7419434
            },
            "1": {
                "name": "Chicligasta",
                "latitude": -27.263788,
                "longitude": -65.8085049
            },
            "2": {
                "name": "Cruz Alta",
                "latitude": -26.9286366,
                "longitude": -64.9534009
            },
            "3": {
                "name": "Famaillá",
                "latitude": -27.0560551,
                "longitude": -65.4021683
            },
            "4": {
                "name": "Graneros",
                "latitude": -27.6498394,
                "longitude": -65.4400711
            },
            "5": {
                "name": "Juan Bautista Alberdi",
                "latitude": -27.5852909,
                "longitude": -65.619812
            },
            "6": {
                "name": "La Cocha",
                "latitude": -27.7717667,
                "longitude": -65.5867996
            },
            "7": {
                "name": "Leales",
                "latitude": -27.2000008,
                "longitude": -65.3000107
            },
            "8": {
                "name": "Lules",
                "latitude": -26.9257507,
                "longitude": -65.3380356
            },
            "9": {
                "name": "Monteros",
                "latitude": -27.1639576,
                "longitude": -65.4963303
            },
            "10": {
                "name": "Río Chico",
                "latitude": -27.4589329,
                "longitude": -65.6148605
            },
            "11": {
                "name": "San Miguel de Tucumán",
                "latitude": -26.8082848,
                "longitude": -65.2175903
            },
            "12": {
                "name": "Simoca",
                "latitude": -27.2624435,
                "longitude": -65.3548203
            },
            "13": {
                "name": "Tafí Viejo",
                "latitude": -26.7324791,
                "longitude": -65.2670288
            },
            "14": {
                "name": "Tafí del Valle",
                "latitude": -26.8458195,
                "longitude": -65.700119
            },
            "15": {
                "name": "Trancas",
                "latitude": -26.2161293,
                "longitude": -65.2835083
            },
            "16": {
                "name": "Yerba Buena",
                "latitude": -26.8166695,
                "longitude": -65.3166809
            }
        ]}
    }
]